[
  {
    "naam": "Shabu Shabu",
    "adres": "Westblaak 82",
    "postcode": "3012 KM Rotterdam",
    "telefoon": "0104116533",
    "website": "https://shabushabu.nl/",
    "latitude": "51.91743",
    "longitude": "4.47757"
  },

  {
    "naam": "iYUMi",
    "adres": "Coolsingel 143",
    "postcode": "3012 AG Rotterdam",
    "telefoon": "0104048639",
    "website": "http://www.iyumi.nl/",
    "latitude": "51.91833",
    "longitude": "4.47985"
  },

  {
    "naam": "Sumo",
    "adres": "Mauritsweg 6",
    "postcode": "3012 LA Rotterdam",
    "telefoon": "0102410550",
    "website": "https://restaurantsumo.com/store-locator/sumo-rotterdam-1/",
    "latitude": "51.92071",
    "longitude": "4.47232"
  },

  {
    "naam": "Happy Sushi",
    "adres": "Kruisplein 42",
    "postcode": "3012 CC Rotterdam",
    "telefoon": "0103182801",
    "website": "https://www.happysushi.eu/",
    "latitude": "51.92197",
    "longitude": "4.47225"
  },

  {
    "naam": "MISO SUSHI PLAZA",
    "adres": "Plaza, 2",
    "postcode": "3012 CW Rotterdam",
    "telefoon": "0103161765",
    "website": "http://www.misosushi.nl/",
    "latitude": "51.92319",
    "longitude": "4.47328"
  },

  {
    "naam": "Suki",
    "adres": "Schiedamsedijk 85A",
    "postcode": "3011 EN Rotterdam",
    "telefoon": "0107371643",
    "website": "http://www.suki.nu/",
    "latitude": "51.91427",
    "longitude": "4.48167"
  },

  {
    "naam": "Sumo Markthal",
    "adres": "Verlengde Nieuwstraat 2-5",
    "postcode": "3011 GX Rotterdam",
    "telefoon": "0103070512",
    "website": "http://restaurantsumo.com/rotterdam-markthallen/",
    "latitude": "51.92032",
    "longitude": "4.48792"
  },

  {
    "naam": "Umi Sushi Ramen & Pokebowl",
    "adres": "Dominee Jan Scharpstraat 298, 28",
    "postcode": "3011 GZ Rotterdam",
    "telefoon": "Niet Beschikbaar",
    "website": "https://www.markthal.nl/markt-restaurants/umi-sushi",
    "latitude": "51.92020",
    "longitude": "4.48704"
  }
]
